[
  {
    "type": "호텔/콘도",
    "id": 1798464516,
    "name": "청간정콘도",
    "address": "강원도 고성군 토성면 중앙로 642-22",
    "tel": "033-631-9331",
    "location": "강원"
  },
  {
    "type": "호텔/콘도",
    "id": 8169573,
    "name": "화진포콘도",
    "address": "강원도 고성군 거진읍 화진포길 330",
    "tel": "033-682-0500",
    "location": "강원"
  },
  {
    "type": "호텔/콘도",
    "id": 7825567,
    "name": "대천콘도1관",
    "address": "충청남도 보령시 갓바위1길 10-30",
    "tel": "041-932-6305",
    "location": "충남"
  },
  {
    "type": "호텔/콘도",
    "id": 10503501,
    "name": "서귀포호텔",
    "address": "제주특별자치도 서귀포시 상예로 161",
    "tel": "064-738-0123",
    "location": "제주"
  },
  {
    "type": "호텔/콘도",
    "id": 23162858,
    "name": "송정콘도",
    "address": "강원도 강릉시 창해로 141",
    "tel": "033-652-7571",
    "location": "강원"
  },
  {
    "type": "호텔/콘도",
    "id": 11823258,
    "name": "대천콘도2관",
    "address": "충남 보령시 남포방조제로 139",
    "tel": "041-934-0504",
    "location": "충남"
  },
  {
    "type": "호텔/콘도",
    "id": 26865188,
    "name": "밀리토피아 호텔(민간위탁)",
    "address": "경기도 성남시 수정구 위례대로 83",
    "tel": "031-727-9300",
    "location": "경기"
  },
  {
    "type": "호텔/콘도",
    "id": 152313844,
    "name": "국방컨벤션",
    "address": "서울 용산구 용산동 3가 1번지 이태원로 22",
    "tel": "02-748-0744",
    "location": "서울"
  },
  {
    "type": "호텔/콘도",
    "id": 17582618,
    "name": "리솜 오션캐슬(안면도)",
    "address": "충남 태안군 안면읍 꽃지해안로 204",
    "tel": "041-671-7110",
    "location": "충남"
  },
  {
    "type": "호텔/콘도",
    "id": 8693759,
    "name": "금호 설악",
    "address": "강원도 속초시 노학동 사당골길 43",
    "tel": "033-636-8000",
    "location": "강원"
  },
  {
    "type": "호텔/콘도",
    "id": 16434989,
    "name": "금호 제주",
    "address": "제주도 서귀포시 남원읍 태위로 522-12",
    "tel": "064-766-8000",
    "location": "제주"
  },
  {
    "type": "호텔/콘도",
    "id": 12068239,
    "name": "금호 통영",
    "address": "경남 통영시 큰발개 1길 33",
    "tel": "055-643-8000",
    "location": "경남"
  },
  {
    "type": "호텔/콘도",
    "id": 25612833,
    "name": "금호 화순",
    "address": "전남 화순군 북면 옥리길 14-21",
    "tel": "061-372-8000",
    "location": "전남"
  },
  {
    "type": "호텔/콘도",
    "id": 7823984,
    "name": "소노벨 경주",
    "address": "경북 경주시 보문로 402-12",
    "tel": "1588-4888",
    "location": "경북"
  },
  {
    "type": "호텔/콘도",
    "id": 8300177,
    "name": "소노문 단양",
    "address": "충북 단양군 단양읍 삼봉로 187-17번",
    "tel": "1588-4888",
    "location": "충북"
  },
  {
    "type": "호텔/콘도",
    "id": 236647471,
    "name": "소노벨 변산",
    "address": "전북 부안군 변산면 변산해변로 51",
    "tel": "1588-4888",
    "location": "전북"
  },
  {
    "type": "호텔/콘도",
    "id": 18060210,
    "name": "소노문 설악(델피노)",
    "address": "강원도 고성군 토성면 미시령옛길 1153",
    "tel": "1588-4888",
    "location": "강원"
  },
  {
    "type": "호텔/콘도",
    "id": 26953215,
    "name": "쏠비치 양양",
    "address": "강원도 양양군 손양면 선사유적로 678",
    "tel": "1588-4888",
    "location": "강원"
  },
  {
    "type": "호텔/콘도",
    "id": 7825452,
    "name": "소노문 양평",
    "address": "경기도 양평군 개군면 신내길 7번길 55",
    "tel": "031-770-7512",
    "location": "경기"
  },
  {
    "type": "호텔/콘도",
    "id": 11700350,
    "name": "소노벨 홍천(비발디파크)",
    "address": "강원도 홍천군 서면 한치골길 262",
    "tel": "1588-4888",
    "location": "강원"
  },
  {
    "type": "호텔/콘도",
    "id": 17985482,
    "name": "켄싱턴 경주",
    "address": "경북 경주시 보문로 182-29",
    "tel": "054-748-8400",
    "location": "경북"
  },
  {
    "type": "호텔/콘도",
    "id": 8589514,
    "name": "켄싱턴 설악비치",
    "address": "강원도 고성군 토성면 동해대로 4800",
    "tel": "033-631-7601",
    "location": "강원"
  },
  {
    "type": "호텔/콘도",
    "id": 1187598034,
    "name": "켄싱턴 충주",
    "address": "충북 충주시 양성면 산전장수1길 103",
    "tel": "043-840-2700",
    "location": "충북"
  },
  {
    "type": "호텔/콘도",
    "id": 781743405,
    "name": "켄싱턴 지리산 남원",
    "address": "전북 남원시 소리길 66",
    "tel": "063-636-7007",
    "location": "전북"
  },
  {
    "type": "호텔/콘도",
    "id": 26507510,
    "name": "한화 경주(에톤)",
    "address": "경북 경주시 보문로 182-27",
    "tel": "054-777-8400",
    "location": "경북"
  },
  {
    "type": "호텔/콘도",
    "id": 25050021,
    "name": "한화 대천",
    "address": "충남 보령시 해수욕장3길 11-10",
    "tel": "041-931-5500",
    "location": "충남"
  },
  {
    "type": "호텔/콘도",
    "id": 25040750,
    "name": "한화 백암",
    "address": "경북 울진군 온정면 온천로 129-13",
    "tel": "054-787-7001",
    "location": "경북"
  },
  {
    "type": "호텔/콘도",
    "id": 19337494,
    "name": "한화 산정호수",
    "address": "경기도 포천시 영북면 산정호수로 402",
    "tel": "031-534-5500",
    "location": "경기"
  },
  {
    "type": "호텔/콘도",
    "id": 27025531,
    "name": "한화 설악(쏘라노)",
    "address": "강원도 속초시 미시령로 2983번길 111",
    "tel": "033-630-5500",
    "location": "강원"
  },
  {
    "type": "호텔/콘도",
    "id": 25037788,
    "name": "한화 수안보",
    "address": "충북 충주시 수안보면 수안보로 321-36",
    "tel": "043-846-8211",
    "location": "충북"
  },
  {
    "type": "호텔/콘도",
    "id": 26020286,
    "name": "한화 양평",
    "address": "경기도 양평군 옥천면 신촌길 188",
    "tel": "031-772-3811",
    "location": "경기"
  },
  {
    "type": "호텔/콘도",
    "id": 8137417,
    "name": "한화 용인(베잔송)",
    "address": "경기도 용인시 처인구 남사면 봉무로 153번길 79",
    "tel": "031-332-1122",
    "location": "경기"
  },
  {
    "type": "호텔/콘도",
    "id": 8016361,
    "name": "한화 제주",
    "address": "제주도 제주시 명림로 575-107",
    "tel": "064-725-9000",
    "location": "제주"
  },
  {
    "type": "호텔/콘도",
    "id": 10928789,
    "name": "한화 해운대",
    "address": "부산시 해운대구 마린시티 3로 52",
    "tel": "051-749-5500",
    "location": "부산"
  },
  {
    "type": "호텔/콘도",
    "id": 16528524,
    "name": "한화 평창",
    "address": "강원도 평창군 봉평면 태기로 228-33",
    "tel": "033-334-6100",
    "location": "강원"
  },
  {
    "type": "호텔/콘도",
    "id": 17101514,
    "name": "현대수 설악",
    "address": "강원도 속초시 노학동 이목로 153",
    "tel": "033-6358-9090",
    "location": "강원"
  },
  {
    "type": "호텔/콘도",
    "id": 18661839,
    "name": "웰리힐리파크",
    "address": "강원도 횡성군 둔내면 고원로 451",
    "tel": "033-340-3000",
    "location": "강원"
  },
  {
    "type": "호텔/콘도",
    "id": 247665176,
    "name": "리솜스파캐슬(덕산)",
    "address": "충남 예산군 덕산면 온천단지로 45-7",
    "tel": "041-330-8000",
    "location": "충남"
  },
  {
    "type": "호텔/콘도",
    "id": 8656377,
    "name": "소노캄제주(샤인빌)",
    "address": "제주도 서귀포시 표선면 일주동로 6347-17",
    "tel": "064-780-7100",
    "location": "제주"
  },
  {
    "type": "호텔/콘도",
    "id": 20381562,
    "name": "엘도라도",
    "address": "전남 신안군 증도면 지도증도로 1766-15",
    "tel": "061-260-3334",
    "location": "전남"
  },
  {
    "type": "호텔/콘도",
    "id": 7877283,
    "name": "무주 덕유산",
    "address": "전북 무주군 설천면 만선로 185",
    "tel": "063-320-7000",
    "location": "전북"
  },
  {
    "type": "호텔/콘도",
    "id": 24572915,
    "name": "켄싱턴 서귀포",
    "address": "제주도 서귀포시 이어도로 684",
    "tel": "064-739-9001",
    "location": "제주"
  },
  {
    "type": "호텔/콘도",
    "id": 13122738,
    "name": "켄싱턴 가평",
    "address": "경기도 가평군 상면 청군로 430",
    "tel": "031-584-9380",
    "location": "경기"
  },
  {
    "type": "호텔/콘도",
    "id": 10650417,
    "name": "신세계(영랑호)",
    "address": "강원도 속초시 영랑호반길 140",
    "tel": "033-633-0001",
    "location": "강원"
  },
  {
    "type": "호텔/콘도",
    "id": 17580242,
    "name": "베어스타운",
    "address": "경기도 포천시 내촌면 금강로 2536번길 27",
    "tel": "031-540-5000",
    "location": "경기"
  },
  {
    "type": "호텔/콘도",
    "id": 19807174,
    "name": "소노캄 거제",
    "address": "경남 거제시 일운면 소동리 115",
    "tel": "1588-4888",
    "location": "경남"
  },
  {
    "type": "호텔/콘도",
    "id": 8177478,
    "name": "보광휘닉스 아일랜드",
    "address": "제주도 서귀포시 성산읍 섭지코지로 107",
    "tel": "1577-0069",
    "location": "제주"
  },
  {
    "type": "호텔/콘도",
    "id": 25657306,
    "name": "쏠비치 삼척",
    "address": "강원도 삼척시 수로부인 길 453",
    "tel": "1588-4888",
    "location": "강원"
  },
  {
    "type": "호텔/콘도",
    "id": 1762341712,
    "name": "한화 거제",
    "address": "경상남도 거제시 장목면 거제북로 2501-40",
    "tel": "055-951-4001",
    "location": "경남"
  },
  {
    "type": "호텔/콘도",
    "id": 26621351,
    "name": "켄싱턴하동",
    "address": "경상남도 하동군 화개면 쌍계로 532-6",
    "tel": "055-880-8000",
    "location": "경남"
  },
  {
    "type": "호텔/콘도",
    "id": 8205229,
    "name": "켄싱턴 해운대(글로리)콘도",
    "address": "부산광역시 해운대구 해운대해변로 243",
    "tel": "051-746-8181",
    "location": "부산"
  },
  {
    "type": "호텔/콘도",
    "id": 8556881,
    "name": "켄싱턴 설악 밸리",
    "address": "강원도 고성군 토성면 신평골길 8-25",
    "tel": "033-633-0100",
    "location": "강원"
  },
  {
    "type": "호텔/콘도",
    "id": 17312107,
    "name": "소노캄 여수",
    "address": "전라남도 여수시 오동도로 111",
    "tel": "061-660-5800",
    "location": "전남"
  },
  {
    "type": "호텔/콘도",
    "id": 1141878421,
    "name": "쏠비치 진도",
    "address": "전라남도 진도군 의신면 초사리 산287",
    "tel": "1588-4888",
    "location": "전남"
  },
  {
    "type": "호텔/콘도",
    "id": 354016988,
    "name": "소노벨 청송",
    "address": "경상북도 청송군 부동면 주왕산로 494-1",
    "tel": "054-518-5114",
    "location": "경북"
  },
  {
    "type": "호텔/콘도",
    "id": 1758176279,
    "name": "소노벨 천안",
    "address": "충청남도 천안시 동남구 성남면 종합휴양지로 200",
    "tel": "1588-4888",
    "location": "충남"
  }
]