[
  {
    "name": "강릉",
    "id": 8632588,
    "tel": "033-641-9690",
    "wtime": "07:00 ~ 18:00",
    "wendtime": "07:00 ~ 18:00",
    "detail": "3번출구 2시방향 여자화장실 옆",
    "location": "강원",
    "type": "역"
  },
  {
    "name": "경산",
    "id": 8181980,
    "tel": "053-750-4556",
    "wtime": "07:20 ~ 17:10",
    "wendtime": "휴일 미 운용",
    "detail": "경산역 출구에서 좌측 4m 지점",
    "location": "경북",
    "type": "역"
  },
  {
    "name": "계룡",
    "id": 8180580,
    "tel": "042-550-4254",
    "wtime": "06:30 ~ 20:00",
    "wendtime": "06:30 ~ 20:00",
    "detail": "계룡역 역광장 출구 방향 정면 30m 지점붉은 벽돌 건물",
    "location": "충남",
    "type": "역"
  },
  {
    "name": "광명",
    "id": 8658728,
    "tel": "02-801-6791",
    "wtime": "07:00 ~ 19:00",
    "wendtime": "07:00 ~ 19:00",
    "detail": "광명역 서편 1번 출구 지하 1층",
    "location": "경기",
    "type": "역"
  },
  {
    "name": "광주송정",
    "id": 15135890,
    "tel": "062-940-7788",
    "wtime": "07:00 ~ 19:00",
    "wendtime": "07:00 ~ 19:00",
    "detail": "광주송정역 1층 운영",
    "location": "광주",
    "type": "역"
  },
  {
    "name": "구포",
    "id": 8700019,
    "tel": "051-730-6787",
    "wtime": "08:00 ~ 18:00",
    "wendtime": "금,일 19:20",
    "detail": "구포역 출구에서 우측 2m 지점",
    "location": "부산",
    "type": "역"
  },
  {
    "name": "김천구미",
    "id": 12657946,
    "tel": "054-440-8034",
    "wtime": "08:00 ~ 18:00",
    "wendtime": "13:00 ~ 17:00",
    "detail": "김천구미역 정문에서 15m 직진 후 역 안내판에서 우측 15m 지점",
    "location": "경북",
    "type": "역"
  },
  {
    "name": "논산",
    "id": 86026504,
    "tel": "041-746-4297",
    "wtime": "07:30 ~ 18:00",
    "wendtime": "07:30 ~ 18:00",
    "detail": "논산역 중앙출구에서 우측으로 10m방향 2층",
    "location": "충남",
    "type": "역"
  },
  {
    "name": "대전",
    "id": 7830504,
    "tel": "042-550-4252",
    "wtime": "06:30 ~ 20:00",
    "wendtime": "06:30 ~ 20:00",
    "detail": "대전역 서광장 방향 대전역지구대(파출소) 좌측",
    "location": "대전",
    "type": "역"
  },
  {
    "name": "덕정",
    "id": 26194147,
    "tel": "031-828-3245",
    "wtime": "08:30 ~ 17:30",
    "wendtime": "휴일 미 운용",
    "detail": "덕정역 정면화장실 우측통로 출구 좌측지점",
    "location": "경기",
    "type": "역"
  },
  {
    "name": "동서울",
    "id": 18166545,
    "tel": "02-3419-7979",
    "wtime": "09:00 ~ 18:00",
    "wendtime": "09:00 ~ 18:00",
    "detail": "동서울터미널 3층 에스컬레이터 정면 5m지점",
    "location": "서울",
    "type": "터미널"
  },
  {
    "name": "동대구",
    "id": 7842981,
    "tel": "053-750-4555",
    "wtime": "07:00 ~ 20:00",
    "wendtime": "07:00 ~ 20:00",
    "detail": "동대구역 4번 출구 우측 2m 지점",
    "location": "대구",
    "type": "역"
  },
  {
    "name": "마산",
    "id": 7871141,
    "tel": "055-549-1099",
    "wtime": "08:00 ~ 18:00",
    "wendtime": "08:00 ~ 18:00",
    "detail": "마산역 1층 우측 10m 지점",
    "location": "경남",
    "type": "역"
  },
  {
    "name": "만종",
    "id": 1848117661,
    "tel": "033-736-7788",
    "wtime": "08:00 ~ 12:00",
    "wendtime": "08:00 ~ 12:00",
    "detail": "만종역 대합실",
    "location": "강원",
    "type": "역"
  },
  {
    "name": "목포",
    "id": 7875967,
    "tel": "061-242-1992",
    "wtime": "07:00 ~ 18:00",
    "wendtime": "07:00 ~ 18:00",
    "detail": "목포역 출구 방향 대로 우측 50m 지점(LIG손해보험 맞은 편)",
    "location": "전남",
    "type": "역"
  },
  {
    "name": "부강",
    "id": 7898438,
    "tel": "044-251-6073",
    "wtime": "07:30 ~ 18:00",
    "wendtime": "07:30 ~ 18:00",
    "detail": "부강역 열차 탑승 출구에서 우측 끝",
    "location": "충남",
    "type": "역"
  },
  {
    "name": "부산",
    "id": 8329752,
    "tel": "051-730-6910",
    "wtime": "07:00 ~ 20:00",
    "wendtime": "07:00 ~ 20:00",
    "detail": "부산역 5번 출구 방향에서 2m 지점",
    "location": "부산",
    "type": "역"
  },
  {
    "name": "서울",
    "id": 9113903,
    "tel": "02-748-7458",
    "wtime": "06:30 ~ 23:00",
    "wendtime": "06:30 ~ 23:00",
    "detail": "서울역사 2층 서부출입구 우측 10m 지점",
    "location": "서울",
    "type": "역"
  },
  {
    "name": "서대전",
    "id": 7946425,
    "tel": "042-550-4253",
    "wtime": "08:00 ~ 18:00",
    "wendtime": "08:00 ~ 18:00",
    "detail": "서대전역 정면 방향에서 우측 길 사이 진입로",
    "location": "대전",
    "type": "역"
  },
  {
    "name": "수서",
    "id": 2104449482,
    "tel": "02-445-2979",
    "wtime": "07:00 ~ 19:00",
    "wendtime": "07:00 ~ 19:00",
    "detail": "수서역 2번출구 치안센터 옆",
    "location": "서울",
    "type": "역"
  },
  {
    "name": "수원",
    "id": 26981264,
    "tel": "031-207-7409",
    "wtime": "07:00 ~ 18:00",
    "wendtime": "07:00 ~ 18:00",
    "detail": "수원역 대합실 주차장 가는 길 3번 출구 좌측 5m  이동 후 우측 출입문 계단 이용",
    "location": "경기",
    "type": "역"
  },
  {
    "name": "신경주",
    "id": 12650630,
    "tel": "054-290-2692",
    "wtime": "08:00 ~ 18:00",
    "wendtime": "08:00 ~ 13:00",
    "detail": "신경주역내 1번 출구 우측으로 10m 지점",
    "location": "경북",
    "type": "역"
  },
  {
    "name": "영동",
    "id": 10640531,
    "tel": "043-740-8789",
    "wtime": "07:00 ~ 18:00",
    "wendtime": "07:00 ~ 18:00",
    "detail": "영동역 2층 사무실",
    "location": "충북",
    "type": "역"
  },
  {
    "name": "영천",
    "id": 8005622,
    "tel": "054-330-3230",
    "wtime": "07:00 ~ 18:00",
    "wendtime": "07:00 ~ 18:00",
    "detail": "영천역 광장에서 우측 3m 지점",
    "location": "경북",
    "type": "역"
  },
  {
    "name": "오송",
    "id": 9265313,
    "tel": "043-231-7347",
    "wtime": "07:00 ~ 19:00",
    "wendtime": "07:00 ~ 19:00",
    "detail": "1번 출구 바로 옆",
    "location": "충북",
    "type": "역"
  },
  {
    "name": "오근장",
    "id": 402140602,
    "tel": "043-200-4757",
    "wtime": "08:00 ~ 18:00",
    "wendtime": "휴일미운용",
    "detail": "오근장역 출구 우측 5m 지점",
    "location": "충북",
    "type": "역"
  },
  {
    "name": "용산",
    "id": 8014275,
    "tel": "02-748-7464",
    "wtime": "07:00~ 20:00",
    "wendtime": "07:00~ 20:00",
    "detail": "용산역 4층 아이파크몰 서관 입구 맞은편",
    "location": "서울",
    "type": "역"
  },
  {
    "name": "울산",
    "id": 12656962,
    "tel": "052-930-8040",
    "wtime": "08:00 ~ 18:00",
    "wendtime": "08:00 ~ 18:00",
    "detail": "울산역 4번출구로부터 50m 지점",
    "location": "울산",
    "type": "역"
  },
  {
    "name": "원주",
    "id": 8026641,
    "tel": "033-740-4572",
    "wtime": "07:00 ~ 18:00",
    "wendtime": "07:00 ~ 18:00",
    "detail": "원주역 광장 정면 우측 10m 지점",
    "location": "강원",
    "type": "역"
  },
  {
    "name": "익산",
    "id": 38198980,
    "tel": "063-260-3848",
    "wtime": "07:00 ~ 18:00",
    "wendtime": "07:00 ~ 18:00",
    "detail": "익산역 임시역사 정면에서 좌측 공사현장 아래 보도에서 20m 도보이동 후 우측 50m 지점",
    "location": "전북",
    "type": "역"
  },
  {
    "name": "장성",
    "id": 8537613,
    "tel": "061-392-6381",
    "wtime": "07:00 ~ 18:00",
    "wendtime": "07:00 ~ 18:00",
    "detail": "장성역 출구 우측 20m 지점",
    "location": "전남",
    "type": "역"
  },
  {
    "name": "전주",
    "id": 8508642,
    "tel": "063-249-7186",
    "wtime": "08:00 ~ 18:00",
    "wendtime": "08:00 ~ 18:00",
    "detail": "전주역 출구 우측 10m 지점(역 공중화장실 옆)",
    "location": "전북",
    "type": "역"
  },
  {
    "name": "조치원",
    "id": 8082473,
    "tel": "044-862-0374",
    "wtime": "08:00 ~ 18:00",
    "wendtime": "08:00 ~ 18:00",
    "detail": "조치원역 정문에서 좌측 주차장 방면 10m 지점",
    "location": "충남",
    "type": "역"
  },
  {
    "name": "증평",
    "id": 8086999,
    "tel": "043-836-3997",
    "wtime": "07:30 ~ 18:00",
    "wendtime": "07:30 ~ 18:00",
    "detail": "증평역 앞 주차장에서 왼쪽으로 30m 지점",
    "location": "충북",
    "type": "역"
  },
  {
    "name": "진주",
    "id": 18214366,
    "tel": "055-753-3175",
    "wtime": "9:00 ~ 18:00",
    "wendtime": "주말미운용",
    "detail": "진주역 입구로부터 11시 방향 5m",
    "location": "경남",
    "type": "역"
  },
  {
    "name": "창원",
    "id": 8083948,
    "tel": "055-250-4274",
    "wtime": "08:00 ~ 18:00",
    "wendtime": "08:00 ~ 18:00",
    "detail": "창원역 1층",
    "location": "경남",
    "type": "역"
  },
  {
    "name": "창원중앙",
    "id": 12750428,
    "tel": "055-549-1097",
    "wtime": "08:00 ~ 18:00",
    "wendtime": "08:00 ~ 18:00",
    "detail": "창원중앙역 내",
    "location": "경남",
    "type": "역"
  },
  {
    "name": "천안아산",
    "id": 8598201,
    "tel": "041-532-7213",
    "wtime": "08:00 ~ 18:00",
    "wendtime": "08:00 ~ 18:00",
    "detail": "천안아산역 2층 훼미리마트 맞은 편",
    "location": "충남",
    "type": "역"
  },
  {
    "name": "청량리",
    "id": 8088565,
    "tel": "02-748-7452",
    "wtime": "08:00 ~ 18:00",
    "wendtime": "08:00 ~ 18:00",
    "detail": "중앙선 - 청량리역 지상 출구로 나와             에스컬레이터로  하행 후 좌측 5m  1호선 - 청량리역 4분 출구 우축 전방 20m",
    "location": "서울",
    "type": "역"
  },
  {
    "name": "춘천",
    "id": 24527962,
    "tel": "033-251-6305",
    "wtime": "07:00 ~ 18:00",
    "wendtime": "07:00 ~ 18:00",
    "detail": "춘천역 1번 출구 좌측 광장 끝 100m 지점",
    "location": "강원",
    "type": "역"
  },
  {
    "name": "퇴계원",
    "id": 1523884425,
    "tel": "031-579-0400",
    "wtime": "08:30 ~ 17:30",
    "wendtime": "휴일 미운용",
    "detail": "퇴계원역 1층",
    "location": "경기",
    "type": "역"
  },
  {
    "name": "평택",
    "id": 17492492,
    "tel": "031-657-1776",
    "wtime": "07:00 ~ 18:00",
    "wendtime": "07:00 ~ 18:00",
    "detail": "평택역 서부역 에스컬레이터로 하행 후  좌측 10미터 지점",
    "location": "경기",
    "type": "역"
  },
  {
    "name": "포항",
    "id": 26102196,
    "tel": "054-290-2691",
    "wtime": "08:00 ~ 18:00",
    "wendtime": "08:00 ~ 18:00",
    "detail": "포항역 출구 좌측 10m 지점",
    "location": "경북",
    "type": "역"
  },
  {
    "name": "홍성",
    "id": 8163679,
    "tel": "041-631-3729",
    "wtime": "08:00 ~ 18:00",
    "wendtime": "08:00 ~ 18:00",
    "detail": "홍성역 사무실 2층",
    "location": "충남",
    "type": "역"
  }
]